{"type": "FeatureCollection", "name": "CTA_RailStations", "crs": {"type": "name", "properties": {"name": "urn:ogc:def:crs:OGC:1.3:CRS84"}}, "features": [{"type": "Feature", "properties": {"Station ID": "580", "Station Name": "54th/Cermak"}, "geometry": {"type": "Point", "coordinates": [-87.75669779931874, 41.85178115200706, 0.0]}}, {"type": "Feature", "properties": {"Station ID": "1680", "Station Name": "Oakton-Skokie"}, "geometry": {"type": "Point", "coordinates": [-87.74722681293852, 42.02625176695044, 0.0]}}, {"type": "Feature", "properties": {"Station ID": "150", "Station Name": "Pulaski-Douglas"}, "geometry": {"type": "Point", "coordinates": [-87.72433250025125, 41.85386467542764, 0.0]}}, {"type": "Feature", "properties": {"Station ID": "1020", "Station Name": "Logan Square"}, "geometry": {"type": "Point", "coordinates": [-87.70854716418013, 41.9297359003234, 0.0]}}, {"type": "Feature", "properties": {"Station ID": "550", "Station Name": "Irving Park-O'Hare"}, "geometry": {"type": "Point", "coordinates": [-87.72918305214448, 41.95294812261154, 0.0]}}, {"type": "Feature", "properties": {"Station ID": "1180", "Station Name": "Kedzie-Ravenswood"}, "geometry": {"type": "Point", "coordinates": [-87.70884957442104, 41.96610047130942, 0.0]}}, {"type": "Feature", "properties": {"Station ID": "90", "Station Name": "Damen-Ravenswood"}, "geometry": {"type": "Point", "coordinates": [-87.67864065735405, 41.96641883877766, 0.0]}}, {"type": "Feature", "properties": {"Station ID": "1060", "Station Name": "Ashland-Midway"}, "geometry": {"type": "Point", "coordinates": [-87.66531741974576, 41.83936372379331, 0.0]}}, {"type": "Feature", "properties": {"Station ID": "470", "Station Name": "Racine"}, "geometry": {"type": "Point", "coordinates": [-87.65946126759742, 41.87589348636801, 0.0]}}, {"type": "Feature", "properties": {"Station ID": "360", "Station Name": "Southport"}, "geometry": {"type": "Point", "coordinates": [-87.6636153262743, 41.9438201191629, 0.0]}}, {"type": "Feature", "properties": {"Station ID": "1420", "Station Name": "Addison-North Main"}, "geometry": {"type": "Point", "coordinates": [-87.6536316945234, 41.94743586163162, 0.0]}}, {"type": "Feature", "properties": {"Station ID": "900", "Station Name": "Howard"}, "geometry": {"type": "Point", "coordinates": [-87.67289822740786, 42.01907109550117, 0.0]}}, {"type": "Feature", "properties": {"Station ID": "1190", "Station Name": "Jarvis"}, "geometry": {"type": "Point", "coordinates": [-87.66909788719494, 42.01588405594352, 0.0]}}, {"type": "Feature", "properties": {"Station ID": "1080", "Station Name": "47th-South Elevated"}, "geometry": {"type": "Point", "coordinates": [-87.6188318683217, 41.8092166774229, 0.0]}}, {"type": "Feature", "properties": {"Station ID": "190", "Station Name": "Sox-35th-Dan Ryan"}, "geometry": {"type": "Point", "coordinates": [-87.63064204051662, 41.8311984057141, 0.0]}}, {"type": "Feature", "properties": {"Station ID": "300", "Station Name": "Indiana"}, "geometry": {"type": "Point", "coordinates": [-87.62146855277798, 41.82182304092441, 0.0]}}, {"type": "Feature", "properties": {"Station ID": "160", "Station Name": "LaSalle/Van Buren"}, "geometry": {"type": "Point", "coordinates": [-87.63173958461779, 41.87686318837668, 0.0]}}, {"type": "Feature", "properties": {"Station ID": "1340", "Station Name": "LaSalle"}, "geometry": {"type": "Point", "coordinates": [-87.63172782559934, 41.87557547902771, 0.0]}}, {"type": "Feature", "properties": {"Station ID": "70", "Station Name": "Jackson/Dearborn"}, "geometry": {"type": "Point", "coordinates": [-87.62930141430954, 41.87819037252998, 0.0]}}, {"type": "Feature", "properties": {"Station ID": "410", "Station Name": "Roosevelt/Wabash"}, "geometry": {"type": "Point", "coordinates": [-87.62659563480534, 41.86741281159907, 0.0]}}, {"type": "Feature", "properties": {"Station ID": "630", "Station Name": "Clark/Division"}, "geometry": {"type": "Point", "coordinates": [-87.63141804586739, 41.90392817078629, 0.0]}}, {"type": "Feature", "properties": {"Station ID": "1140", "Station Name": "King Drive"}, "geometry": {"type": "Point", "coordinates": [-87.61555161946254, 41.78013755431125, 0.0]}}, {"type": "Feature", "properties": {"Station ID": "230", "Station Name": "Cumberland"}, "geometry": {"type": "Point", "coordinates": [-87.83803180680631, 41.98430191797546, 0.0]}}, {"type": "Feature", "properties": {"Station ID": "980", "Station Name": "Harlem-Congress"}, "geometry": {"type": "Point", "coordinates": [-87.80696667415118, 41.87349789485971, 0.0]}}, {"type": "Feature", "properties": {"Station ID": "610", "Station Name": "Ridgeland"}, "geometry": {"type": "Point", "coordinates": [-87.78366682895161, 41.88716724486273, 0.0]}}, {"type": "Feature", "properties": {"Station ID": "600", "Station Name": "Kostner"}, "geometry": {"type": "Point", "coordinates": [-87.73326943646387, 41.8537585306984, 0.0]}}, {"type": "Feature", "properties": {"Station ID": "740", "Station Name": "Western-Douglas"}, "geometry": {"type": "Point", "coordinates": [-87.685184984822, 41.85440468397525, 0.0]}}, {"type": "Feature", "properties": {"Station ID": "1480", "Station Name": "Western-Ravenswood"}, "geometry": {"type": "Point", "coordinates": [-87.68850838181541, 41.96625791365247, 0.0]}}, {"type": "Feature", "properties": {"Station ID": "290", "Station Name": "Ashland/63rd"}, "geometry": {"type": "Point", "coordinates": [-87.66385059843425, 41.77896124034916, 0.0]}}, {"type": "Feature", "properties": {"Station ID": "1130", "Station Name": "Halsted-Midway"}, "geometry": {"type": "Point", "coordinates": [-87.64813685637581, 41.84690928812338, 0.0]}}, {"type": "Feature", "properties": {"Station ID": "1030", "Station Name": "Polk"}, "geometry": {"type": "Point", "coordinates": [-87.66954898886634, 41.87157085461511, 0.0]}}, {"type": "Feature", "properties": {"Station ID": "530", "Station Name": "Diversey"}, "geometry": {"type": "Point", "coordinates": [-87.65313661932552, 41.9327393626827, 0.0]}}, {"type": "Feature", "properties": {"Station ID": "1460", "Station Name": "Irving Park-Ravenswood"}, "geometry": {"type": "Point", "coordinates": [-87.67496151408044, 41.95453100372132, 0.0]}}, {"type": "Feature", "properties": {"Station ID": "1300", "Station Name": "Loyola"}, "geometry": {"type": "Point", "coordinates": [-87.66106647218115, 42.00108123251872, 0.0]}}, {"type": "Feature", "properties": {"Station ID": "760", "Station Name": "Granville"}, "geometry": {"type": "Point", "coordinates": [-87.65920804951907, 41.99367213278863, 0.0]}}, {"type": "Feature", "properties": {"Station ID": "880", "Station Name": "Thorndale"}, "geometry": {"type": "Point", "coordinates": [-87.6590816284849, 41.9902673651999, 0.0]}}, {"type": "Feature", "properties": {"Station ID": "450", "Station Name": "95th/Dan Ryan"}, "geometry": {"type": "Point", "coordinates": [-87.62442047818683, 41.72238381140691, 0.0]}}, {"type": "Feature", "properties": {"Station ID": "130", "Station Name": "51st"}, "geometry": {"type": "Point", "coordinates": [-87.61850733881356, 41.80209942554507, 0.0]}}, {"type": "Feature", "properties": {"Station ID": "1690", "Station Name": "Cermak-McCormick Place"}, "geometry": {"type": "Point", "coordinates": [-87.6264081312554, 41.85312293293457, 0.0]}}, {"type": "Feature", "properties": {"Station ID": "680", "Station Name": "Adams/Wabash"}, "geometry": {"type": "Point", "coordinates": [-87.62610364868259, 41.87951807343823, 0.0]}}, {"type": "Feature", "properties": {"Station ID": "460", "Station Name": "Merchandise Mart"}, "geometry": {"type": "Point", "coordinates": [-87.63397911241252, 41.88897578906456, 0.0]}}, {"type": "Feature", "properties": {"Station ID": "1450", "Station Name": "Chicago/State"}, "geometry": {"type": "Point", "coordinates": [-87.62818210374641, 41.89667906971972, 0.0]}}, {"type": "Feature", "properties": {"Station ID": "1350", "Station Name": "Oak Park-Lake"}, "geometry": {"type": "Point", "coordinates": [-87.79378915073309, 41.88699536761607, 0.0]}}, {"type": "Feature", "properties": {"Station ID": "10", "Station Name": "Austin-Congress"}, "geometry": {"type": "Point", "coordinates": [-87.77679106161999, 41.87089423793505, 0.0]}}, {"type": "Feature", "properties": {"Station ID": "280", "Station Name": "Central-Lake"}, "geometry": {"type": "Point", "coordinates": [-87.76565529624305, 41.88739686208317, 0.0]}}, {"type": "Feature", "properties": {"Station ID": "1150", "Station Name": "Kedzie-Midway"}, "geometry": {"type": "Point", "coordinates": [-87.70432643014003, 41.80435624558044, 0.0]}}, {"type": "Feature", "properties": {"Station ID": "1070", "Station Name": "Kedzie-Lake"}, "geometry": {"type": "Point", "coordinates": [-87.70616119341452, 41.88432894665252, 0.0]}}, {"type": "Feature", "properties": {"Station ID": "50", "Station Name": "Davis"}, "geometry": {"type": "Point", "coordinates": [-87.68354870851039, 42.0477179742168, 0.0]}}, {"type": "Feature", "properties": {"Station ID": "810", "Station Name": "Illinois Medical District"}, "geometry": {"type": "Point", "coordinates": [-87.67395164228799, 41.87564327950848, 0.0]}}, {"type": "Feature", "properties": {"Station ID": "660", "Station Name": "Armitage"}, "geometry": {"type": "Point", "coordinates": [-87.65265006654704, 41.91822442730744, 0.0]}}, {"type": "Feature", "properties": {"Station ID": "1200", "Station Name": "Argyle"}, "geometry": {"type": "Point", "coordinates": [-87.65853573132846, 41.97346119121882, 0.0]}}, {"type": "Feature", "properties": {"Station ID": "940", "Station Name": "Halsted/63rd"}, "geometry": {"type": "Point", "coordinates": [-87.64402887138584, 41.7790357039443, 0.0]}}, {"type": "Feature", "properties": {"Station ID": "730", "Station Name": "Washington/Wells"}, "geometry": {"type": "Point", "coordinates": [-87.63385928139567, 41.88270287267916, 0.0]}}, {"type": "Feature", "properties": {"Station ID": "370", "Station Name": "Washington/Dearborn"}, "geometry": {"type": "Point", "coordinates": [-87.62944580985747, 41.88317228107134, 0.0]}}, {"type": "Feature", "properties": {"Station ID": "260", "Station Name": "State/Lake"}, "geometry": {"type": "Point", "coordinates": [-87.62784093065541, 41.88574826585578, 0.0]}}, {"type": "Feature", "properties": {"Station ID": "1490", "Station Name": "Harrison"}, "geometry": {"type": "Point", "coordinates": [-87.62748486642838, 41.87404709710525, 0.0]}}, {"type": "Feature", "properties": {"Station ID": "1400", "Station Name": "Roosevelt/State"}, "geometry": {"type": "Point", "coordinates": [-87.62740813098551, 41.86737551792345, 0.0]}}, {"type": "Feature", "properties": {"Station ID": "420", "Station Name": "Cicero-Douglas"}, "geometry": {"type": "Point", "coordinates": [-87.74534779108217, 41.85193255766494, 0.0]}}, {"type": "Feature", "properties": {"Station ID": "1280", "Station Name": "Jefferson Park"}, "geometry": {"type": "Point", "coordinates": [-87.76089807695402, 41.9706420002594, 0.0]}}, {"type": "Feature", "properties": {"Station ID": "140", "Station Name": "Dempster-Skokie"}, "geometry": {"type": "Point", "coordinates": [-87.75192442786546, 42.03895856768109, 0.0]}}, {"type": "Feature", "properties": {"Station ID": "960", "Station Name": "Pulaski-Midway"}, "geometry": {"type": "Point", "coordinates": [-87.72445541267878, 41.79989565534002, 0.0]}}, {"type": "Feature", "properties": {"Station ID": "1290", "Station Name": "Kimball"}, "geometry": {"type": "Point", "coordinates": [-87.71314781867095, 41.9679360158686, 0.0]}}, {"type": "Feature", "properties": {"Station ID": "590", "Station Name": "Damen/Milwaukee"}, "geometry": {"type": "Point", "coordinates": [-87.67744242150029, 41.90975164885153, 0.0]}}, {"type": "Feature", "properties": {"Station ID": "670", "Station Name": "Western/Milwaukee"}, "geometry": {"type": "Point", "coordinates": [-87.68737015196355, 41.91616528606281, 0.0]}}, {"type": "Feature", "properties": {"Station ID": "270", "Station Name": "Main"}, "geometry": {"type": "Point", "coordinates": [-87.67954370273573, 42.03346358792708, 0.0]}}, {"type": "Feature", "properties": {"Station ID": "840", "Station Name": "South Boulevard"}, "geometry": {"type": "Point", "coordinates": [-87.67833519509428, 42.02761972510378, 0.0]}}, {"type": "Feature", "properties": {"Station ID": "1510", "Station Name": "Morgan"}, "geometry": {"type": "Point", "coordinates": [-87.6521337492022, 41.88558464238372, 0.0]}}, {"type": "Feature", "properties": {"Station ID": "1220", "Station Name": "Fullerton"}, "geometry": {"type": "Point", "coordinates": [-87.65287159904722, 41.92505922896584, 0.0]}}, {"type": "Feature", "properties": {"Station ID": "1210", "Station Name": "Wellington"}, "geometry": {"type": "Point", "coordinates": [-87.65327221255315, 41.93604046491454, 0.0]}}, {"type": "Feature", "properties": {"Station ID": "1270", "Station Name": "43rd"}, "geometry": {"type": "Point", "coordinates": [-87.61904152179673, 41.81647106651779, 0.0]}}, {"type": "Feature", "properties": {"Station ID": "790", "Station Name": "Monroe/Dearborn"}, "geometry": {"type": "Point", "coordinates": [-87.62938345039956, 41.88071131527848, 0.0]}}, {"type": "Feature", "properties": {"Station ID": "1660", "Station Name": "Lake/State"}, "geometry": {"type": "Point", "coordinates": [-87.6278191303412, 41.88481672271364, 0.0]}}, {"type": "Feature", "properties": {"Station ID": "1700", "Station Name": "Washington/Wabash"}, "geometry": {"type": "Point", "coordinates": [-87.62619453399076, 41.88322786763295, 0.0]}}, {"type": "Feature", "properties": {"Station ID": "710", "Station Name": "Chicago/Franklin"}, "geometry": {"type": "Point", "coordinates": [-87.63595241055046, 41.8967820282575, 0.0]}}, {"type": "Feature", "properties": {"Station ID": "890", "Station Name": "O'Hare Airport"}, "geometry": {"type": "Point", "coordinates": [-87.9018542401251, 41.97888459452153, 0.0]}}, {"type": "Feature", "properties": {"Station ID": "970", "Station Name": "Cicero-Congress"}, "geometry": {"type": "Point", "coordinates": [-87.74517796104934, 41.87161589660543, 0.0]}}, {"type": "Feature", "properties": {"Station ID": "1330", "Station Name": "Montrose-O'Hare"}, "geometry": {"type": "Point", "coordinates": [-87.74362276598056, 41.96149449458196, 0.0]}}, {"type": "Feature", "properties": {"Station ID": "780", "Station Name": "Central Park"}, "geometry": {"type": "Point", "coordinates": [-87.71488603658214, 41.85399979969775, 0.0]}}, {"type": "Feature", "properties": {"Station ID": "1670", "Station Name": "Conservatory-Central Park"}, "geometry": {"type": "Point", "coordinates": [-87.7165286089476, 41.88491222970505, 0.0]}}, {"type": "Feature", "properties": {"Station ID": "60", "Station Name": "Belmont-O'Hare"}, "geometry": {"type": "Point", "coordinates": [-87.71236513069877, 41.93813952907493, 0.0]}}, {"type": "Feature", "properties": {"Station ID": "570", "Station Name": "California/Milwaukee"}, "geometry": {"type": "Point", "coordinates": [-87.69689557273675, 41.92194702889206, 0.0]}}, {"type": "Feature", "properties": {"Station ID": "1010", "Station Name": "Rockwell"}, "geometry": {"type": "Point", "coordinates": [-87.69411690237814, 41.96621781459241, 0.0]}}, {"type": "Feature", "properties": {"Station ID": "320", "Station Name": "Division/Milwaukee"}, "geometry": {"type": "Point", "coordinates": [-87.66650183004226, 41.90336294139404, 0.0]}}, {"type": "Feature", "properties": {"Station ID": "1310", "Station Name": "Paulina"}, "geometry": {"type": "Point", "coordinates": [-87.67088971204495, 41.94371701109472, 0.0]}}, {"type": "Feature", "properties": {"Station ID": "1320", "Station Name": "Belmont-North Main"}, "geometry": {"type": "Point", "coordinates": [-87.6533862509046, 41.93975860901573, 0.0]}}, {"type": "Feature", "properties": {"Station ID": "1500", "Station Name": "Montrose-Ravenswood"}, "geometry": {"type": "Point", "coordinates": [-87.67517116217032, 41.96175957672028, 0.0]}}, {"type": "Feature", "properties": {"Station ID": "540", "Station Name": "Wilson"}, "geometry": {"type": "Point", "coordinates": [-87.65773981222279, 41.9642620267585, 0.0]}}, {"type": "Feature", "properties": {"Station ID": "1120", "Station Name": "35-Bronzeville-IIT"}, "geometry": {"type": "Point", "coordinates": [-87.6258872185329, 41.83168586753622, 0.0]}}, {"type": "Feature", "properties": {"Station ID": "1160", "Station Name": "Clinton-Lake"}, "geometry": {"type": "Point", "coordinates": [-87.64177705823936, 41.88571127793149, 0.0]}}, {"type": "Feature", "properties": {"Station ID": "380", "Station Name": "Clark/Lake"}, "geometry": {"type": "Point", "coordinates": [-87.6308917692326, 41.88574484112598, 0.0]}}, {"type": "Feature", "properties": {"Station ID": "820", "Station Name": "Rosemont"}, "geometry": {"type": "Point", "coordinates": [-87.85939352963639, 41.98351514666212, 0.0]}}, {"type": "Feature", "properties": {"Station ID": "180", "Station Name": "Oak Park-Congress"}, "geometry": {"type": "Point", "coordinates": [-87.7916079466438, 41.87211581779315, 0.0]}}, {"type": "Feature", "properties": {"Station ID": "1240", "Station Name": "Addison-O'Hare"}, "geometry": {"type": "Point", "coordinates": [-87.71910508518773, 41.94736796299252, 0.0]}}, {"type": "Feature", "properties": {"Station ID": "310", "Station Name": "Western-Midway"}, "geometry": {"type": "Point", "coordinates": [-87.684070745255, 41.80469139806309, 0.0]}}, {"type": "Feature", "properties": {"Station ID": "1360", "Station Name": "California-Lake"}, "geometry": {"type": "Point", "coordinates": [-87.69623998618866, 41.88422738259541, 0.0]}}, {"type": "Feature", "properties": {"Station ID": "1410", "Station Name": "Chicago/Milwaukee"}, "geometry": {"type": "Point", "coordinates": [-87.65522003826536, 41.89608309268771, 0.0]}}, {"type": "Feature", "properties": {"Station ID": "490", "Station Name": "Grand/Milwaukee"}, "geometry": {"type": "Point", "coordinates": [-87.64758406650633, 41.89119714893985, 0.0]}}, {"type": "Feature", "properties": {"Station ID": "340", "Station Name": "Berwyn"}, "geometry": {"type": "Point", "coordinates": [-87.6586741879951, 41.97799186164995, 0.0]}}, {"type": "Feature", "properties": {"Station ID": "770", "Station Name": "Lawrence"}, "geometry": {"type": "Point", "coordinates": [-87.65849872909713, 41.96914680841935, 0.0]}}, {"type": "Feature", "properties": {"Station ID": "1000", "Station Name": "Cermak-Chinatown"}, "geometry": {"type": "Point", "coordinates": [-87.63097357395789, 41.85321364529852, 0.0]}}, {"type": "Feature", "properties": {"Station ID": "850", "Station Name": "Library"}, "geometry": {"type": "Point", "coordinates": [-87.628214893786, 41.87691619392593, 0.0]}}, {"type": "Feature", "properties": {"Station ID": "330", "Station Name": "Grand/State"}, "geometry": {"type": "Point", "coordinates": [-87.62802700803539, 41.8916730574256, 0.0]}}, {"type": "Feature", "properties": {"Station ID": "800", "Station Name": "Sedgwick"}, "geometry": {"type": "Point", "coordinates": [-87.6393079203776, 41.9104170389223, 0.0]}}, {"type": "Feature", "properties": {"Station ID": "390", "Station Name": "Forest Park"}, "geometry": {"type": "Point", "coordinates": [-87.81732358369125, 41.87426515380074, 0.0]}}, {"type": "Feature", "properties": {"Station ID": "20", "Station Name": "Harlem-Lake"}, "geometry": {"type": "Point", "coordinates": [-87.80318178891547, 41.88685614893064, 0.0]}}, {"type": "Feature", "properties": {"Station ID": "1040", "Station Name": "Kedzie-Douglas"}, "geometry": {"type": "Point", "coordinates": [-87.70543372639689, 41.85413843196669, 0.0]}}, {"type": "Feature", "properties": {"Station ID": "250", "Station Name": "Kedzie-Homan"}, "geometry": {"type": "Point", "coordinates": [-87.70598406727086, 41.87443335775891, 0.0]}}, {"type": "Feature", "properties": {"Station ID": "870", "Station Name": "Francisco"}, "geometry": {"type": "Point", "coordinates": [-87.70166151229138, 41.96615476057213, 0.0]}}, {"type": "Feature", "properties": {"Station ID": "690", "Station Name": "Dempster"}, "geometry": {"type": "Point", "coordinates": [-87.68160776812049, 42.04166252341194, 0.0]}}, {"type": "Feature", "properties": {"Station ID": "1250", "Station Name": "Central-Evanston"}, "geometry": {"type": "Point", "coordinates": [-87.68562304144338, 42.06399442642645, 0.0]}}, {"type": "Feature", "properties": {"Station ID": "520", "Station Name": "Foster"}, "geometry": {"type": "Point", "coordinates": [-87.68356610968644, 42.05416810560904, 0.0]}}, {"type": "Feature", "properties": {"Station ID": "210", "Station Name": "Damen"}, "geometry": {"type": "Point", "coordinates": [-87.67597985711731, 41.85452270903613, 0.0]}}, {"type": "Feature", "properties": {"Station ID": "350", "Station Name": "UIC-Halsted"}, "geometry": {"type": "Point", "coordinates": [-87.64964798619056, 41.87552406123216, 0.0]}}, {"type": "Feature", "properties": {"Station ID": "1440", "Station Name": "Addison-Ravenswood"}, "geometry": {"type": "Point", "coordinates": [-87.67474187737942, 41.94703651829411, 0.0]}}, {"type": "Feature", "properties": {"Station ID": "240", "Station Name": "79th"}, "geometry": {"type": "Point", "coordinates": [-87.62518408964259, 41.75042017467679, 0.0]}}, {"type": "Feature", "properties": {"Station ID": "910", "Station Name": "63rd-Dan Ryan"}, "geometry": {"type": "Point", "coordinates": [-87.631006189554, 41.78054217137316, 0.0]}}, {"type": "Feature", "properties": {"Station ID": "1230", "Station Name": "47th-Dan Ryan"}, "geometry": {"type": "Point", "coordinates": [-87.63103154054333, 41.81034597473561, 0.0]}}, {"type": "Feature", "properties": {"Station ID": "1170", "Station Name": "Garfield-Dan Ryan"}, "geometry": {"type": "Point", "coordinates": [-87.63117491203764, 41.79542610146753, 0.0]}}, {"type": "Feature", "properties": {"Station ID": "430", "Station Name": "Clinton-Congress"}, "geometry": {"type": "Point", "coordinates": [-87.64098996956923, 41.87554675755604, 0.0]}}, {"type": "Feature", "properties": {"Station ID": "40", "Station Name": "Quincy/Wells"}, "geometry": {"type": "Point", "coordinates": [-87.63374572700161, 41.87873113699569, 0.0]}}, {"type": "Feature", "properties": {"Station ID": "720", "Station Name": "Cottage Grove"}, "geometry": {"type": "Point", "coordinates": [-87.60586315053764, 41.78031660592742, 0.0]}}, {"type": "Feature", "properties": {"Station ID": "750", "Station Name": "Harlem-O'Hare"}, "geometry": {"type": "Point", "coordinates": [-87.80890074801908, 41.98233123185098, 0.0]}}, {"type": "Feature", "properties": {"Station ID": "1260", "Station Name": "Austin-Lake"}, "geometry": {"type": "Point", "coordinates": [-87.77414104874704, 41.88730063185813, 0.0]}}, {"type": "Feature", "properties": {"Station ID": "700", "Station Name": "Laramie"}, "geometry": {"type": "Point", "coordinates": [-87.7549922818578, 41.88717107474194, 0.0]}}, {"type": "Feature", "properties": {"Station ID": "480", "Station Name": "Cicero-Lake"}, "geometry": {"type": "Point", "coordinates": [-87.74470418468003, 41.88652720218169, 0.0]}}, {"type": "Feature", "properties": {"Station ID": "930", "Station Name": "Midway Airport"}, "geometry": {"type": "Point", "coordinates": [-87.73796214424328, 41.78662138294693, 0.0]}}, {"type": "Feature", "properties": {"Station ID": "920", "Station Name": "Pulaski-Congress"}, "geometry": {"type": "Point", "coordinates": [-87.72563070768719, 41.87389657200711, 0.0]}}, {"type": "Feature", "properties": {"Station ID": "30", "Station Name": "Pulaski-Lake"}, "geometry": {"type": "Point", "coordinates": [-87.7254095470132, 41.88541982924769, 0.0]}}, {"type": "Feature", "properties": {"Station ID": "120", "Station Name": "35th/Archer"}, "geometry": {"type": "Point", "coordinates": [-87.68059312856637, 41.82956793051812, 0.0]}}, {"type": "Feature", "properties": {"Station ID": "440", "Station Name": "California-Douglas"}, "geometry": {"type": "Point", "coordinates": [-87.69482868204386, 41.85428747624522, 0.0]}}, {"type": "Feature", "properties": {"Station ID": "220", "Station Name": "Western-Congress"}, "geometry": {"type": "Point", "coordinates": [-87.68844027787107, 41.87553742389285, 0.0]}}, {"type": "Feature", "properties": {"Station ID": "1050", "Station Name": "Linden"}, "geometry": {"type": "Point", "coordinates": [-87.69073530588713, 42.07316064583699, 0.0]}}, {"type": "Feature", "properties": {"Station ID": "400", "Station Name": "Noyes"}, "geometry": {"type": "Point", "coordinates": [-87.68334266535966, 42.05829035210234, 0.0]}}, {"type": "Feature", "properties": {"Station ID": "830", "Station Name": "18th"}, "geometry": {"type": "Point", "coordinates": [-87.66916588427537, 41.85791555639891, 0.0]}}, {"type": "Feature", "properties": {"Station ID": "170", "Station Name": "Ashland-Lake"}, "geometry": {"type": "Point", "coordinates": [-87.66695669808699, 41.88531924836643, 0.0]}}, {"type": "Feature", "properties": {"Station ID": "650", "Station Name": "North/Clybourn"}, "geometry": {"type": "Point", "coordinates": [-87.64918302563791, 41.91066243867761, 0.0]}}, {"type": "Feature", "properties": {"Station ID": "80", "Station Name": "Sheridan"}, "geometry": {"type": "Point", "coordinates": [-87.65493515696464, 41.95378281260766, 0.0]}}, {"type": "Feature", "properties": {"Station ID": "1380", "Station Name": "Bryn Mawr"}, "geometry": {"type": "Point", "coordinates": [-87.65884605396295, 41.98351209529449, 0.0]}}, {"type": "Feature", "properties": {"Station ID": "100", "Station Name": "Morse"}, "geometry": {"type": "Point", "coordinates": [-87.6659148632272, 42.00836969333375, 0.0]}}, {"type": "Feature", "properties": {"Station ID": "1430", "Station Name": "87th"}, "geometry": {"type": "Point", "coordinates": [-87.62475880743338, 41.73537904075754, 0.0]}}, {"type": "Feature", "properties": {"Station ID": "990", "Station Name": "69th"}, "geometry": {"type": "Point", "coordinates": [-87.62581508779428, 41.7683757008673, 0.0]}}, {"type": "Feature", "properties": {"Station ID": "510", "Station Name": "Garfield-South Elevated"}, "geometry": {"type": "Point", "coordinates": [-87.61832984600049, 41.7951844937943, 0.0]}}, {"type": "Feature", "properties": {"Station ID": "1090", "Station Name": "Monroe/State"}, "geometry": {"type": "Point", "coordinates": [-87.62770220896869, 41.88075241298048, 0.0]}}, {"type": "Feature", "properties": {"Station ID": "560", "Station Name": "Jackson/State"}, "geometry": {"type": "Point", "coordinates": [-87.6276018467328, 41.87816061070666, 0.0]}}]}